{"Canada": {"Alberta": {"Calgary": [{"time": "7:30pm", "contact": "Nikolas J 587-777-2239", "day": "Monday", "name": "'Lifesavers',Step &amp; Discussion", "location": "Central United Church,131 7th Ave SW "}]}, "British Columbia": {"Surrey": [{"time": "7:00pm", "contact": "None", "day": "Thursday", "name": "'Finally Free'", "location": "Easy Does It Club,7277 King George Highway "}, {"time": "6:00pm", "contact": "None", "day": "Saturday", "name": "'Desperation Relieved'", "location": "Easy Does It Club,7277 King George Highway "}]}}, "Mississippi": {}, "Oklahoma": {}, "Wyoming": {}, "Minnesota": {}, "Illinois": {"Rockford": [{"name": "'Beyond the White Knuckle'", "longitude": -89.07163399999999, "contact": "", "location": "Alano club of Rockford, 1210 11th Street, Rockford, Il 61104", "time": "7:00pm", "latitude": 42.255362, "day": "Thursday"}], "Addison": [{"name": "Meeting Name:", "longitude": "n/a", "contact": "Contact:", "location": "Location: (click for map)", "time": "Time:", "latitude": "n/a", "day": "Day:"}, {"name": "WOMEN'S MEETING", "longitude": -88.028549, "contact": "331-240-0780", "location": "Serenity House, Big Hall,891 S Rohlwing Rd,Addison, IL 60101", "time": "7:00pm", "latitude": 41.908622, "day": "Sunday"}, {"name": "MEN'S Bog Book Study", "longitude": -88.028549, "contact": "Jason H 312-834-1819", "location": "Serenity House, Big Hall,891 S Rohlwing Rd,Addison, IL 60101", "time": "7:00pm", "latitude": 41.908622, "day": "Saturday"}], "Chicago": [{"name": "Meeting Name:", "longitude": "n/a", "contact": "Contact:", "location": "Location: (click for map)", "time": "Time:", "latitude": "n/a", "day": "Day:"}, {"name": "Open Meeting", "longitude": -87.7458625, "contact": "Tim 847-708-8162", "location": "The Recovery House,4704 W Irving Park Rd,Chicago, IL 60641", "time": "2:00pm", "latitude": 41.9536489, "day": "Sunday"}, {"name": "Heroin Anonymous", "longitude": -87.78617109999999, "contact": "", "location": "Northwest Edge Alano,7525 W Belmont,Chicago, IL 60634", "time": "5:00pm", "latitude": 41.947969, "day": "Sunday"}, {"name": "", "longitude": -87.6294951, "contact": "Claire 314-799-1792", "location": "867 N Dearborn St, Room 132,Chicago, IL 60610", "time": "7:00pm", "latitude": 41.8985825, "day": "Wednesday"}, {"name": "Open Meeting", "longitude": -87.7458625, "contact": "Tim 847-708-8162", "location": "The Recovery House,4704 W Irving Park Rd,Chicago, IL 60641", "time": "6:00pm", "latitude": 41.9536489, "day": "Thursday"}, {"name": "'Get Straight'", "longitude": -87.7458625, "contact": "Tim 847-708-8162", "location": "The Recovery House,4704 W Irving Park Rd,Chicago, IL 60641", "time": "6:00pm", "latitude": 41.9536489, "day": "Friday"}, {"name": "Open Speaker Meeting", "longitude": -88.1427884, "contact": "HA DuPage County Web Site: wwwhadupageorg,HA DuPage County Hotline: (331) 240-0780", "location": "Community Center (Multi Purpose Room),115 N County Farm Road,Wheaton, IL 60187", "time": "7:00pm", "latitude": 41.8642554, "day": "Friday"}], "Westmont": [{"name": "Meeting Name:", "longitude": "n/a", "contact": "Contact:", "location": "Location: (click for map)", "time": "Time:", "latitude": "n/a", "day": "Day:"}, {"name": "New Freedom Group", "longitude": -87.9763165, "contact": "331-240-0780", "location": "West Suburban Alano Club,17 W Quincy St,Westmont, IL 60559", "time": "3:30 pm", "latitude": 41.7950376, "day": "Sunday"}], "Antioch": [{"name": "'Talking Smack'", "longitude": "n/a", "contact": "Barb 847-525-0635", "location": "Antioch Recovery Club,311 W Depot Street - Suite C, ", "time": "8:30pm", "latitude": "n/a", "day": "Tuesday"}], "Winfield": [{"name": "Meeting Name:", "longitude": "n/a", "contact": "Contact:", "location": "Location: (click for map)", "time": "Time:", "latitude": "n/a", "day": "Day:"}, {"name": "Hope Slangers", "longitude": -88.1602315, "contact": "331-240-0780", "location": "Central DuPage Hospital BHS Building,27 W 350 High Lake Rd Room 131,Winfield, IL 60190", "time": "8:30 pm", "latitude": 41.8712188, "day": "Monday"}], "Charleston": [{"name": "'From Suffering to Serenity'", "longitude": -88.17251379999999, "contact": "Dee 217-549-0026", "location": "Basement of St Charles Church,921 Madison Ave Charleston, IL 61920", "time": "6:00pm", "latitude": 39.4963604, "day": "Thursday"}], "Bloomington": [{"name": "", "longitude": "n/a", "contact": "", "location": "Cedar Lakes Fellowship,401 E Empire, ", "time": "3:00pm", "latitude": "n/a", "day": "Sunday"}], "New Lenox": [{"name": "HA of Will County", "longitude": -87.95030129999999, "contact": "Kris 779-279-0584", "location": "Lincolnway Christian Church,690 Illinois Hwy,New Lenox, IL 60451", "time": "7:00pm", "latitude": 41.4970766, "day": "Tuesday"}], "Streamwood": [{"name": "Meeting Name:", "longitude": "n/a", "contact": "Contact:", "location": "Location: (click for map)", "time": "Time:", "latitude": "n/a", "day": "Day:"}, {"name": "", "longitude": -88.1832577, "contact": "Josh K 630-880-1718,Kim H 630-808-9291", "location": "EDI Club,18 W Streamwood Blvd,Streamwood, IL 60107", "time": "9:00pm", "latitude": 42.0219551, "day": "Tuesday"}]}, "Arkansas": {}, "New Mexico": {}, "Ohio": {"Akron": [{"name": "Messenger of Hope", "longitude": -81.5150563, "contact": "Vance 330-990-0065", "location": "342 E South St,Akron, OH 44311", "time": "7:00pm", "latitude": 41.0617775, "day": "Monday"}, {"name": "'ABC's of Sobriety'", "longitude": -81.50856189999999, "contact": "Vance S at 330-990-0065", "location": "213 E Glenwood Ave,Akron, OH 44310", "time": "7:00pm", "latitude": 41.0960259, "day": "Thursday"}, {"name": "'A Way Out',Big Book Study", "longitude": -81.50564299999999, "contact": "Ryan C 330-212-7987", "location": "FI Community Housing Facility,619 Johnston St,Akron, OH 44311", "time": "7:00pm", "latitude": 41.063815, "day": "Saturday"}], "Austintown": [{"name": "'The Witching Hour'", "longitude": -77.1719486, "contact": "Nikki 330-301-5987", "location": "Crossroads Church,554 S Meridian Road, ", "time": "12:00am", "latitude": 38.8944603, "day": "Friday"}], "Ohio Help-Line: 888-699-7556": [], "Ashtabula": [{"name": "'There Is Hope'", "longitude": "n/a", "contact": "Ronda V 440-812-2708", "location": "Signature Health,4726 Main Ave,Ashtabula, OH 44004,In the basement", "time": "4:00pm", "latitude": "n/a", "day": "Wednesday"}]}, "Indiana": {"Bloomington": [{"name": "'Nod Squad'", "longitude": -86.5380563, "contact": "HAINDIANAPOLISAREA@OUTLOOKCOM", "location": "Sacred Heart Church,410 W Kirkwood Ave,Bloomington, IN 47404", "time": "8:30pm", "latitude": 39.1666221, "day": "Tuesday"}], "Indianapolis": [{"name": "'Surrender All Group'", "longitude": -86.1381512, "contact": "HAINDIANAPOLISAREA@OUTLOOKCOM", "location": "Dove Recovery House for Women,14 N Highland Ave ,Indianapolis Indiana, 46202 ", "time": "2:00pm", "latitude": 39.7674502, "day": "Tuesday"}, {"name": "'Over the Spoon'", "longitude": -86.15366, "contact": "HAINDIANAPOLISAREA@OUTLOOKCOM", "location": "Unity Church,907 N Delaware St,Indianapolis, IN 46202", "time": "8:00pm", "latitude": 39.779339, "day": "Tuesday"}, {"name": "'The Right Track'", "longitude": -86.0025804, "contact": "HAINDIANAPOLISAREA@OUTLOOKCOM", "location": "First Christian Church,16377 Herriman Blvd,Noblesville, IN 46060", "time": "7:00pm", "latitude": 40.0265647, "day": "Wednesday"}, {"name": "'Everyday Language Group'", "longitude": -86.1390679, "contact": "HAINDIANAPOLISAREA@OUTLOOKCOM", "location": "201 S Shelby street,Indianapolis IN 46202", "time": "8:00pm", "latitude": 39.76354329999999, "day": "Wednesday"}, {"name": "'Hope After Dope'", "longitude": -86.11984989999999, "contact": "HAINDIANAPOLISAREA@OUTLOOKCOM", "location": "2502 E 38th St , Indianapolis, IN 46218/td&gt;", "time": "7:30pm", "latitude": 39.825832, "day": "Thursday"}, {"name": "'The Foundation Group',Steps 123 Open Discussion", "longitude": -86.0411589, "contact": "HAINDIANAPOLISAREA@OUTLOOKCOM", "location": "8102 Clearvista Pkwy,Indianapolis, IN 46256", "time": "6:00pm", "latitude": 39.902923, "day": "Friday"}, {"name": "HA Speaker Meeting", "longitude": -86.2178174, "contact": "HAINDIANAPOLISAREA@OUTLOOKCOM", "location": "Harbor Light Treatment Center , 2400 N Tibbs Avenue , Indianapolis, IN 46222", "time": "7:30pm", "latitude": 39.8002723, "day": "Saturday"}, {"name": "'No More Suffering',Topic Discussion", "longitude": -86.15196949999999, "contact": "HAINDIANAPOLISAREA@OUTLOOKCOM", "location": "2135 N Alabama St, Indianapolis, IN 46202", "time": "8:00pm", "latitude": 39.7967855, "day": "Sunday"}], "Noblesville": [{"name": "'No Hero In Heroin'", "longitude": -86.012411, "contact": "Britney P 317-649-0691", "location": "Suburban North Club,1811 S 10th St,Noblesville, IN 46060", "time": "8:00pm", "latitude": 40.028773, "day": "Sunday"}]}, "Maryland": {"Westminster": [{"name": "'Dopeless Hope Fiends'", "longitude": -76.990601, "contact": "Tim W 410-961-6854", "location": "The Triangle Recovery Club of Westminster,2 N Court Street,Westminster, MD 21157", "time": "6:30pm", "latitude": 39.5699372, "day": "Monday"}, {"name": "'I am here, so I am not there'", "longitude": -76.990601, "contact": "Tim W 410-961-6854", "location": "The Triangle Recovery Club of Westminster,2 N Court Street,Westminster, MD 21157", "time": "6:30pm", "latitude": 39.5699372, "day": "Friday"}], "Frederick": [{"name": "'Better Late Than Never'", "longitude": -77.4224323, "contact": " Johnnie M 301-865-3931 , Johnnie@soldiersagainstheroinorg", "location": "511 W South St , Frederick, MD 21701", "time": "6:00pm", "latitude": 39.41148099999999, "day": "Friday"}, {"name": "'The Young And Restless'", "longitude": -77.4224323, "contact": " Johnnie M 301-865-3931 , Johnnie@soldiersagainstheroinorg", "location": "511 W South St , Frederick, MD 21701", "time": "3:30pm", "latitude": 39.41148099999999, "day": "Saturday"}]}, "Louisiana": {"New Orleans": [{"name": "'Dopeless Hope Fiends'", "longitude": -90.0628187, "contact": "Jonah S 504-407-6557", "location": "The Lambda Center,1428 North Rampart St,New Orleans, LA 70116", "time": "8:30pm", "latitude": 29.9664432, "day": "Monday"}, {"name": "'The Point'", "longitude": -90.0718527, "contact": "Juli D 504-222-3644", "location": "1160 Camp Street , New Orleans, LA 70130", "time": "8:30pm", "latitude": 29.9400222, "day": "Wednesday"}]}, "Idaho": {}, "Arizona": {"El Mirage": [{"name": "'Hope Fiends'", "longitude": "n/a", "contact": "", "location": "Nu Hope Alano Club,12321 NW Grand Avenue ", "time": "8:15pm", "latitude": "n/a", "day": "Monday"}], "Flagstaff": [{"name": "'The Dopless Hope Fiends'", "longitude": "n/a", "contact": "928-556-9588", "location": "Alano Club,2102 East 3rd Avenue ", "time": "8:30pm", "latitude": "n/a", "day": "Tuesday"}]}, "Iowa": {}, "New York": {}, "Michigan": {"Birmingham": [{"name": "Unavailable", "longitude": -105.0280903, "contact": "Sara 248-909-3906 or sassah@livecom", "location": "Barnum Park ", "time": "6:00pm", "latitude": 39.7232031, "day": "Friday"}, {"name": "Unavailable", "longitude": 150.7770475, "contact": "Sara 248-909-3906 or sassah@livecom", "location": "Shain Park ", "time": "11:00am", "latitude": -33.7105067, "day": "Saturday"}, {"name": "Unavailable", "longitude": -83.2194804, "contact": "Sara 248-909-3906 or sassah@livecom", "location": "Booth Park ", "time": "12:00pm", "latitude": 42.5484377, "day": "Sunday"}], "Monroe": [{"name": "'Monroe's First Step'", "longitude": -83.38663389999999, "contact": "Jeremy 734-430-7899", "location": "Oaks of Righteousness Church,1018 E 2nd St,Monroe, MI 48161", "time": "4:00pm", "latitude": 41.90870049999999, "day": "Wednesday"}]}, "Kansas": {}, "Utah": {"Salt Lake County": [{"name": "'Dopeless Hopefiends'", "longitude": -111.8987747, "contact": "Unavailable", "location": "Alano Club,5056 South 300 West,Murray, UT", "time": "7:00pm", "latitude": 40.6615226, "day": "Tuesday"}, {"name": "'Tar Trojans'", "longitude": -111.8673417, "contact": "Unavailable", "location": "Fellowship Hall,2060 Windsor Street,Salt Lake City, UT 84105", "time": "8:30pm", "latitude": 40.7259689, "day": "Thursday"}, {"name": "Fresh Tracks", "longitude": -111.8226333, "contact": "Unavailable", "location": "Cafeteria of Univ of UT,Neuropsychiatric Institute,501 Chipeta Way,Salt Lake City, UT 84108", "time": "8:00pm", "latitude": 40.758008, "day": "Friday"}], "Price": [{"name": "'The Dark Horse'", "longitude": -110.8359762, "contact": "Doug: 435-299-1763", "location": "Alano Club,1267 Carbonville Rd,Price, UT 84501", "time": "8:00pm", "latitude": 39.6200525, "day": "Sunday"}]}, "Virginia": {}, "Oregon": {"Portland": [{"name": "'The Way Out'", "longitude": -122.7009456, "contact": "Portland HA Hotline:,971-220-2776", "location": "'Loft Room', Alano Club of Portland,909 NW 24th Avenue, ", "time": "5:30pm", "latitude": 45.5292464, "day": "Sunday"}, {"name": "'Carrying The Message',Open Meeting", "longitude": -122.6849245, "contact": "Charlie H 503-891-3492", "location": "1312 SW Washington St,Portland, OR 97205,ENTRANCE ON 13th ST SIDE OF BUILDING,Group Room 1", "time": "7:00pm", "latitude": 45.5220679, "day": "Sunday"}, {"name": "'Monday Night Reprieve'", "longitude": -122.629494, "contact": "Anthony 503-369-4120", "location": "Kenilworth Presbyterian Church , 4028 SE 34th Ave , Portland, OR 97202", "time": "8:00pm", "latitude": 45.494011, "day": "Monday"}, {"name": "'Sunlight of the Spirit' Women's Meeting", "longitude": -122.7009456, "contact": "Jodi B 503-960-4072", "location": "Alano Club,909 NW 24th Ave,Portland, OR 97210,", "time": "7:00pm", "latitude": 45.5292464, "day": "Tuesday"}, {"name": "'Freedom to Live' Men's Meeting", "longitude": -122.7009456, "contact": "Victor 971-373-2521", "location": "Alano Club,909 NW 24th Ave,Portland, OR 97210,", "time": "7:00pm", "latitude": 45.5292464, "day": "Tuesday"}, {"name": "'The Way Out'", "longitude": -122.7009456, "contact": "Portland HA Hotline:,971-220-2776", "location": "'Loft Room', Alano Club of Portland,909 NW 24th Avenue, ", "time": "8:00pm", "latitude": 45.5292464, "day": "Wednesday"}, {"name": "'The Point'", "longitude": -122.629494, "contact": "Joe R 503-957-2548", "location": "Kenilworth Presbyterian Church,4028 SE 34th Ave,Portland, OR 97202", "time": "8:00pm", "latitude": 45.494011, "day": "Wednesday"}, {"name": "'Clean Today, Free Tomorrow'", "longitude": -122.4765798, "contact": "Clint 503-381-2509", "location": "Coda Outpatient,1427 SE 182nd Ave,Portland, OR 97233", "time": "8:00pm", "latitude": 45.5125405, "day": "Wednesday"}, {"name": "'Friday Night Candle Light''", "longitude": -122.7009456, "contact": "971-220-2776", "location": "Alano Club of Portland ,909 NW 24th Ave, Portland, OR 97210", "time": "9:00pm", "latitude": 45.5292464, "day": "Friday"}, {"name": "'The Foundation' ", "longitude": -122.622754, "contact": "Charlie H 503-891-3492", "location": "The 4th Dimension Recovery Club, 3807 NE Martin Luther King Blvd , Portland, OR 97212 ", "time": "6:30pm", "latitude": 45.535039, "day": "Saturday"}, {"name": "'Upon Awakening' ", "longitude": -122.6583281, "contact": "Alex 971-220-4004", "location": "Women's VOA,200 SE 7th Ave,Portland, OR 97214", "time": "9:00pm", "latitude": 45.5213062, "day": "Saturday"}]}, "Connecticut": {}, "Montana": {}, "New Hampshire": {"Bedford": [{"name": "'Sober, Grateful and Free'", "longitude": -71.5084384, "contact": "Tracey 603-969-4988", "location": "Manchester Christian Church,56 Old Bedford Rd,Bedford, NH 03110", "time": "8:30pm", "latitude": 42.96725989999999, "day": "Thursday"}], "Nashua": [{"name": "'Nashua Original'", "longitude": -71.46761169999999, "contact": "Brion C 603-759-6220", "location": "59 Factory St,Nashua, NH 03060", "time": "7:00pm - 8:30pm", "latitude": 42.7611111, "day": "Tuesday"}, {"name": "'Primary Purpose',Speaker Discussion", "longitude": -71.46495019999999, "contact": "Jay B 603-305-3427", "location": "Main Street United Methodist Church,154 Main St,Nashua, NH 03060", "time": "12:00pm", "latitude": 42.7612602, "day": "Wednesday"}, {"name": "'Nashua Saturday Night HA'", "longitude": -71.4596201, "contact": "Mitch P 603-933-0137", "location": "HEARTS Building,5 Pine St Ext,Nashua, NH 03060", "time": "9:30pm - 11:00pm", "latitude": 42.7470311, "day": "Saturday"}], "Hudson": [{"name": "'Spiritual Awakening',Step Discussion", "longitude": -71.4409105, "contact": "Chris H 603-820-4675", "location": "Hudson Community Church,19 Central St,Hudson, NH 03051", "time": "7:30pm - 9:00pm", "latitude": 42.7625683, "day": "Monday"}], "Seabrook": [{"name": "'Hope Not Dope',Closed - Speaker/Discussion", "longitude": -70.86982119999999, "contact": "Mark L (603-502-8900)", "location": "Seacoast Youth Services HQ, 867 Lafayette Road, Seabrook, NH", "time": "7:00pm", "latitude": 42.9013065, "day": "Sunday"}], "Newmarket": [{"name": "'Serenity HA'", "longitude": -70.93644499999999, "contact": "Unavailable", "location": "Newmarket Community Church,137 Main St,Newmarket NH 03857", "time": "7:30pm", "latitude": 43.078268, "day": "Wednesday"}], "Manchester": [{"name": "'Dopeless Hope Fiends'", "longitude": "n/a", "contact": "Scott B 603-660-9671", "location": " Hope For NH Recovery ,122 Market St", "time": "7:30pm", "latitude": "n/a", "day": "Tuesday"}, {"name": "'Share the Hope Not the Dope'", "longitude": "n/a", "contact": "CJ F 603-486-9309", "location": "Hope For NH Recovery ,122 Market St", "time": "7:30pm", "latitude": "n/a", "day": "Thursday"}, {"name": "'Hope Sick Group'", "longitude": -71.4633444, "contact": "Mike H 502-678-5868", "location": "Tirell House, 15 Brook St Manchester, New Hampshire", "time": "7:00pm", "latitude": 42.9998727, "day": "Friday"}], "Dover": [{"name": "'Sunday Steps '", "longitude": -70.86853719999999, "contact": "Matt 603-969-3174", "location": "Triangle Club,120 Broadway,Dover, NH 03820", "time": "3:00pm", "latitude": 43.2058179, "day": "Sunday"}, {"name": "Big Book Meeting", "longitude": -70.86853719999999, "contact": "Jason 603-361-1450", "location": "Triangle Club, 120 Broadway,Dover, NH 03820", "time": "12:00pm", "latitude": 43.2058179, "day": "Monday"}, {"name": "The More Than A Score Group , Speaker/Participation Format", "longitude": -70.86853719999999, "contact": "Jason 603-361-1450", "location": "Triangle Club, 120 Broadway,Dover, NH 03820", "time": "8:00pm", "latitude": 43.2058179, "day": "Tuesday"}, {"name": "'No Nodding Nooner'", "longitude": -70.86853719999999, "contact": "Matt 603-969-3174", "location": "Triangle Club, 120 Broadway,Dover, NH 03820", "time": "12:00pm", "latitude": 43.2058179, "day": "Wednesday"}, {"name": "'Thursday Night Big Book'", "longitude": -70.86853719999999, "contact": "Matt 603-969-3174", "location": "Triangle Club, 120 Broadway,Dover, NH 03820", "time": "8:00pm", "latitude": 43.2058179, "day": "Thursday"}, {"name": "'Fantastic Friday'", "longitude": -70.86853719999999, "contact": "Mike K 603-973-6928", "location": "Triangle Club, 120 Broadway,Dover, NH 03820", "time": "12:00pm", "latitude": 43.2058179, "day": "Friday"}, {"name": "'Second Chance Saturday'", "longitude": -70.86853719999999, "contact": "Michele 603-502-6684", "location": "Triangle Club,120 Broadway,Dover, NH 03820", "time": "8:00pm", "latitude": 43.2058179, "day": "Saturday"}]}, "Massachusetts": {"West Bridgewater": [{"name": "'The Walking Dead'", "longitude": -80.074618, "contact": "Keren I 845-893-9867", "location": "24 South Clubhouse,320 W Center Street ,02379", "time": "7:30pm", "latitude": 26.9366781, "day": "Sunday"}]}, "West Virginia": {"Parkersburg": [{"name": "'Willingness is Key'", "longitude": -81.54250979999999, "contact": "Justin S 304-588-0899,justinsparkersburg@gmailcom", "location": "1721 Latrobe St,Parkersburg, WV 26101", "time": "3:00pm - 4:15pm", "latitude": 39.2738022, "day": "Sunday"}, {"name": "'Willingness is Key'", "longitude": -81.54250979999999, "contact": "Justin S 304-588-0899,justinsparkersburg@gmailcom", "location": "1721 Latrobe St,Parkersburg, WV 26101", "time": "6:30pm", "latitude": 39.2738022, "day": "Thursday"}]}, "South Carolina": {"Myrtle Beach": [{"name": "'One Heart One Mind' Group", "longitude": -78.84648299999999, "contact": "Jimmy L 910-386-8649", "location": ",Ignite Church,4808 N Kings Hwy,Myrtle Beach, SC 29577", "time": "8:00pm", "latitude": 33.723203, "day": "Monday"}], "Sumter": [{"name": "'Bright Side of the Spoon',Literature based discussion meeting,Last Tuesday of the month speaker meeting", "longitude": -80.469195, "contact": "Chris B 803-494-5315", "location": "4742 Broad St,Sumter, SC 29154", "time": "9:30pm", "latitude": 33.9607079, "day": "Tuesday"}]}, "California": {"San Clemente": [{"name": "Get Well Group,Big Book Study", "longitude": -117.6052956, "contact": "Nick S 949-315-9173", "location": "929 Calle Negocio, Suite H,San Clemente, CA 92673", "time": "8:15pm", "latitude": 33.4510442, "day": "Sunday"}, {"name": "Get Well Group", "longitude": -117.6012322, "contact": "Jonah P 610-451-9625", "location": "1050 Calle Negocio,San Clemente, CA 92673", "time": "7:30pm", "latitude": 33.4546896, "day": "Tuesday"}], "Palm Springs": [{"name": "'Junkie See Junkie Do'", "longitude": -116.5520457, "contact": "Unavailable", "location": "Alano Club of the Desert,463 W Dominguez Rd, Palm Springs, CA 92262 ", "time": "8:00pm", "latitude": 33.8550974, "day": "Thursday"}], "Covina": [{"name": "", "longitude": "n/a", "contact": "", "location": "San Gabriel Valley,Alano Club,510 2nd Avenue ", "time": "8:30pm", "latitude": "n/a", "day": "Wednesday"}], "Simi Valley": [{"name": "'Nodd-Off Track'", "longitude": -118.743617, "contact": "Daniel D 805-915-7408 ,Courtnee W 805-587-6433", "location": "1186 Appleton Rd ,Simi Valley, CA 93065", "time": "8:00pm", "latitude": 34.260467, "day": "Friday"}], "San Diego": [{"name": "'IV League'", "longitude": -117.2355851, "contact": "John D 703-309-4994", "location": "1004 Chalcedony Avenue,God\u2019s Garage, in Pacific Beach, ", "time": "6:00pm", "latitude": 32.8024577, "day": "Sunday"}, {"name": "'The Healing Starts Today'", "longitude": -116.9843195, "contact": "619-433-8027", "location": "Step By Step-Serenity and Beyond,8790 Cuyamaca Street,Suite D,Santee, CA, 92071", "time": "8:30pm", "latitude": 32.8356606, "day": "Tuesday"}, {"name": "'The Cottages Sober Living'", "longitude": 100.7105396, "contact": "Meagan S 619-261-2996", "location": "2325 30th Street,'The Living Room', ", "time": "7:00pm", "latitude": 13.7802725, "day": "Wednesday"}, {"name": "HA Discussion Meeting", "longitude": -117.107838, "contact": "John D 703-309-4994", "location": "Stepping Stone,3767 Central Ave,San Diego, CA 92105", "time": "6:00pm", "latitude": 32.747159, "day": "Saturday"}], "Santa Cruz": [{"name": "", "longitude": "n/a", "contact": "", "location": "Calvary Episcopal,Church,532 Center St ", "time": "8:15pm", "latitude": "n/a", "day": "Tuesday"}, {"name": "", "longitude": "n/a", "contact": "831-713-9398 Brian", "location": "Circle Church,111 Erritt Circle ", "time": "8:00pm", "latitude": "n/a", "day": "Thursday"}], "Pasadena": [{"name": "'Spiritual Snakes'", "longitude": "n/a", "contact": "Nathan K 713-410-0651 , Kat R 626-720-3820", "location": "Action Family Counseling,3813 East Colorado Blvd ", "time": "9:00pm", "latitude": "n/a", "day": "Wednesday"}, {"name": "'Heroes in Herion'", "longitude": -118.1224819, "contact": "Tanner C (410) 370-1707,Anthony D (909) 305-3675", "location": "154 N Holliston Ave,Pasadena, CA 91106,Meeting located at the fire pit", "time": "6:15pm", "latitude": 34.1486428, "day": "Thursday"}], "Los Angeles": [{"name": "'Dark Side of the Spoon'", "longitude": -118.2983474, "contact": "Mike 626-343-7218", "location": "Hollywood Metropolitan Community Church,4607 Prospect Ave,Hollywood, CA 90027", "time": "7:15pm", "latitude": 34.1017602, "day": "Tuesday"}, {"name": "'The Dosage'", "longitude": -118.2720232, "contact": "Mike G 626 343-7218", "location": "Royal Palms Recovery Center , 360 S Westlake Ave, Los Angeles, CA 90057", "time": "8:00pm", "latitude": 34.0607469, "day": "Wednesday"}, {"name": "'Strung Out on Recovery'", "longitude": -118.4148277, "contact": "John O 310-428-4215", "location": "11311 Washington Blvd,Los Angeles, California 90066,Back of the building", "time": "8:00pm", "latitude": 34.0038545, "day": "Thursday"}], "San Bernadino": [{"name": "'Ambassadors of Hope'", "longitude": -77.0542226, "contact": "", "location": "242 W 5th St ", "time": "10:00am", "latitude": 35.5476711, "day": "Saturday"}], "San Francisco": [{"name": "'The Other Side of the Tracks", "longitude": -122.4340943, "contact": "Jon S 415-666-5461", "location": "4058 18th St,San Francisco, CA 94114", "time": "9:00am", "latitude": 37.7611444, "day": "Friday"}], "Santa Barbara": [{"name": "", "longitude": -119.7241711, "contact": "Ricky R 805-886-7548", "location": "New House 3,2434 Bath St,Santa Barbara, CA 93105", "time": "6:30pm", "latitude": 34.4323584, "day": "Saturday"}], "Encinitas": [{"name": "'The Soul-ution'", "longitude": -117.2588606, "contact": "Rachel R 760-579-1874", "location": "552 S El Camino Real,Encinitas, CA 92024", "time": "7:00pm", "latitude": 33.0362985, "day": "Tuesday"}, {"name": "'Friday Night Fix'", "longitude": "n/a", "contact": "Joe N 760-448-0734", "location": "Stephouse,1430 N Coast Hwy 101, ", "time": "9:00pm", "latitude": "n/a", "day": "Friday"}]}, "Germany": {"Berlin": [{"name": "HA're we are", "longitude": "n/a", "contact": "", "location": "Familienzentrum Mehringdamm,Mehringdamm 114, Berlin, Germany Rm 403 2nd Floor ", "time": "8:00pm-9:30pm", "latitude": "n/a", "day": "Tuesday"}]}, "Vermont": {}, "Georgia": {"Atlanta": [{"name": "Smackdown,Open Discussion / Beginners", "longitude": -84.3406582, "contact": "Lauren K 404-771-7447", "location": "North Atlanta Church of Christ, Room 106, 5676 Roberts Dr, Dunwoody, GA 30338", "time": "8:00 pm", "latitude": 33.9675554, "day": "Sunday"}, {"name": "Out of Hell", "longitude": -84.36545199999999, "contact": "Matt P 404-956-0924", "location": "Triangle Club, Room C,702 Lakeshore Cir NE,Atlanta, GA 30324", "time": "7:00 pm", "latitude": 33.816527, "day": "Monday"}, {"name": "Nod Squad", "longitude": -84.3406582, "contact": "Lauren K 404-771-7447", "location": "North Atlanta Church of Christ, Room 106, 5676 Roberts Dr, Dunwoody, GA 30338", "time": "8:00 pm", "latitude": 33.9675554, "day": "Tuesday"}, {"name": "'The Extension'", "longitude": -84.5572481, "contact": "Jonathon W 478-952-5809", "location": "1507 Church Street Ext ", "time": "8:00pm", "latitude": 33.9780812, "day": "Tuesday"}, {"name": "Freedom Club HA", "longitude": -84.536163, "contact": "Jonathon W 478-952-5809", "location": "47 Fairground St N 7,Marietta, GA 30060", "time": "8:00 pm", "latitude": 33.9518716, "day": "Wednesday"}, {"name": "HARD,(Heroin Addicts Recovering Daily)", "longitude": -84.362972, "contact": "Jessica Mc 770-895-6646", "location": "North Springs United Methodist Church,7770 Roswell Rd, Atlanta, GA 30350", "time": "8:00 pm", "latitude": 33.96783509999999, "day": "Saturday"}, {"name": "'Freedom Club HA'", "longitude": "n/a", "contact": "Jonathon W 478-952-5809", "location": "47 Fairground St N 7,Marietta GA 30060, on the second floor of the Wigley Building,(above Happy Charley\u2019s)", "time": "8:00pm", "latitude": "n/a", "day": "Saturday"}]}, "North Dakota": {}, "Pennsylvania": {"Coatesville": [{"name": "IV League", "longitude": "n/a", "contact": "June H,717-824-0307", "location": "Veterans Affairs Medical Center,1400 Blackhorse Hill Rd ", "time": "8:00pm", "latitude": "n/a", "day": "Friday"}], "Erie": [{"name": "'Hope Without Dope'", "longitude": -80.15653309999999, "contact": "Taylor M (814) 323-9010", "location": "Westminster Presbyterian Church,Back Building,3642 W 26th St,Erie, PA 16506", "time": "8:00pm", "latitude": 42.0812645, "day": "Saturday"}]}, "Florida": {"West Palm Beach": [{"name": "Jay Walkers", "longitude": -80.0772269, "contact": "Ashley 609-317-0504", "location": "1711 Worthington Rd,West Palm Beach, FL 33409", "time": "8:30pm", "latitude": 26.696314, "day": "Sunday"}, {"name": "The Out Right Mental Defectives", "longitude": -80.1127937, "contact": "Jenna D 702-544-1803", "location": "655 N Military Trail,West Palm Beach, FL 33415", "time": "8:00pm", "latitude": 26.6869982, "day": "Wednesday"}]}, "Alaska": {}, "Kentucky": {"Florence": [{"name": "'HA at 7 Hills Church'", "longitude": -84.6246551, "contact": "", "location": "6800 Hazel Ct,Florence, KY 41042", "time": "7:00pm", "latitude": 39.0151581, "day": "Friday"}], "Lexington": [{"name": "'Welcome All' (starting March 21th, 2015)", "longitude": -84.48874599999999, "contact": "Jodi S 859-221-3739", "location": "370 E 2nd St , Lexington, KY ", "time": "6:00pm", "latitude": 38.04387699999999, "day": "Saturday"}], "Lakeside Park": [{"name": "'Just for Today'", "longitude": -84.570696, "contact": "", "location": "Lakeside Presbyterian church,2690 Dixie Hwy,Lakeside Park KY 41017", "time": "5:00pm", "latitude": 39.0323735, "day": "Friday"}]}, "Hawaii": {}, "United States": {}, "Nebraska": {}, "Missouri": {"St Louis": [{"name": "", "longitude": -90.26426839999999, "contact": "Joe 314-800-6274", "location": "Harris House,8315 S Broadway,St Louis, MO 63111", "time": "8:00 PM", "latitude": 38.5422846, "day": "Monday"}, {"name": "'Stick to the Solution'", "longitude": -90.25302239999999, "contact": "Heidi B 314-743-6066", "location": "Alano Club,3974 Humphrey St,St Louis, MO 63116", "time": "8:30 PM", "latitude": 38.5988534, "day": "Wednesday"}, {"name": "", "longitude": -90.2641574, "contact": "Joe 314-800-6274", "location": "In Stairs Bldg, First Floor,8327 S Broadway,St Louis, MO 63111", "time": "8:00 PM", "latitude": 38.5419596, "day": "Friday"}, {"name": "Dopeless Hope Queens,WOMEN'S MEETING", "longitude": -90.25302239999999, "contact": "Heidi B 314-743-6066", "location": "Alano Club,3974 Humphrey St,St Louis, MO 63116", "time": "5:00 PM", "latitude": 38.5988534, "day": "Saturday"}], "Springfield": [{"name": "'A Way Out'", "longitude": -93.2402633, "contact": "417-522-5995", "location": "Schweitzer United Methodist Church,2747 E Sunshine St,Springfield, MO 65804", "time": "1:00pm - 2:30pm", "latitude": 37.1811621, "day": "Saturday"}]}, "Wisconsin": {"Green Bay": [{"name": "Heroin Anonymous", "longitude": -88.0134848, "contact": "Matthew K 608-209-4573,Sam H 920-461-8683", "location": "Grace Lutheran Church,321 S Madison St,Green Bay, WI 54301", "time": "12:00pm", "latitude": 44.50979299999999, "day": "Monday"}, {"name": "Heroin Anonymous", "longitude": -88.030529, "contact": "Matthew K 608-209-4573,Sam H 920-461-8683", "location": "Dar June Cafe,1301 S Broadway,Green Bay, WI", "time": "8:00pm", "latitude": 44.50222100000001, "day": "Monday"}, {"name": "Heroin Anonymous", "longitude": -88.0134848, "contact": "Matthew K 608-209-4573,Sam H 920-461-8683", "location": "Grace Lutheran Church,321 S Madison St,Green Bay, WI 54301", "time": "8:00pm", "latitude": 44.50979299999999, "day": "Thursday"}], "Milwaukee": [{"name": "'Spiritual Injection',Rotating Format,Closed Meeting 1st and 3rd,week of the month", "longitude": -87.8993821, "contact": "", "location": "The Jazz Gallery,926 E Center St,Milwaukee, WI 53212", "time": "8:00pm", "latitude": 43.0676438, "day": "Monday"}, {"name": "Dopeless Hope Fiends", "longitude": -87.9030001, "contact": "Ryan P 414-704-8874", "location": "Brew City Church,1036 N Van Buren St,Milwaukee, WI 53202", "time": "8:00pm", "latitude": 43.0446927, "day": "Tuesday"}, {"name": "The Junk Yard", "longitude": -134.4197222, "contact": "Ryan 262-424-8738", "location": "Summerfield United Methodist Church,728 E Juneau Ave,Milwaukee, WI 53202,On the corner of Cass and Juneau", "time": "7:00pm", "latitude": 58.3019444, "day": "Saturday"}], "Oconomowoc": [{"name": "Countless Vain Attempts", "longitude": -88.4368904, "contact": "Reese 262-409-0920", "location": "Roger's Memorial Hospital , 34700 Valley Rd Oconomowoc, WI 53066", "time": "7:00pm", "latitude": 43.08434, "day": "Sunday"}], "Wauwatosa": [{"name": "'President's House'", "longitude": -105.946857, "contact": " Michelle L 630-740-4352", "location": "1220 Dewey Lane ", "time": "8:00pm", "latitude": 32.9134564, "day": "Friday"}], "Waukesha": [{"name": "Heroin Anonymous", "longitude": -88.23201999999999, "contact": "Reese 262-409-0920", "location": "Waukesha Alano Club,318 W Broadway St,Waukesha, WI 53186", "time": "6:30pm", "latitude": 43.0118441, "day": "Thursday"}]}, "Alabama": {"Birmingham": [{"name": "Breaking Point,Men and women split on 2nd and 4th Sunday,Speaker meeting on 3rd Sunday", "longitude": -111.9360171, "contact": "Lee M (205) 475-2187,Crystal C (205) 440-6375,Joey D (618) 719-6592,Brent B (205) 901-3735,", "location": "JAFI Clubhouse,2012 14th Ave South,Birmingham, AL 85285", "time": "8:00pm", "latitude": 33.3928523, "day": "Sunday"}, {"name": "Breaking Point", "longitude": -111.9360171, "contact": "Lee M (205) 475-2187,Crystal C (205) 440-6375,Joey D (618) 719-6592,Brent B (205) 901-3735,", "location": "JAFI Clubhouse,2012 14th Ave South,Birmingham, AL 85285", "time": "8:00pm", "latitude": 33.3928523, "day": "Tuesday"}, {"name": "Breaking Point", "longitude": -111.9360171, "contact": "Lee M (205) 475-2187,Crystal C (205) 440-6375,Joey D (618) 719-6592,Brent B (205) 901-3735,", "location": "JAFI Clubhouse,2012 14th Ave South,Birmingham, AL 85285", "time": "8:00pm", "latitude": 33.3928523, "day": "Thursday"}, {"name": "Silver Spoon", "longitude": -86.7877668, "contact": "Henry K 205-200-3757 ,Zack R 205-531-5398", "location": "Vestavia Hills United Methodist Church,2061 Kentucky Ave , Vestavia Hills, AL 35216, Room 106", "time": "8:00pm", "latitude": 33.4487183, "day": "Friday"}]}, "Rhode Island": {}, "South Dakota": {}, "Colorado": {"Fort Collins": [{"name": "'Nod Squad'", "longitude": "n/a", "contact": "Taylor B (303) 868-5182,Adnan S (970) 779-4867", "location": "Sun Room of Trinity Lutheran Church,301 E Stuart St,Fort Collins, CO 80525, b>Use west entrance and parking lot /b>", "time": "7:00pm", "latitude": "n/a", "day": "Saturday"}], "Denver": [{"name": "'Noddy By Nature'", "longitude": -104.9888658, "contact": "Christian O 720-570-6714", "location": "1663 S Acoma St,Denver, CO 80223", "time": "7:30pm", "latitude": 39.6864845, "day": "Friday"}], "Colorado Springs": [{"name": "Recovery Symptoms", "longitude": -104.8550702, "contact": "Nathan (719) 659-6491,Annie (814) 227-4723", "location": "1919 W Colorado Ave,Colorado Springs, CO 80904", "time": "7:30pm", "latitude": 38.8422649, "day": "Tuesday"}, {"name": "On Point", "longitude": -104.7608448, "contact": "Brittany (719) 377-1964,Derek (818) 312-8165", "location": "4965 Van Teylingen Drive Unit I,Colorado Springs, CO 80904", "time": "8:00pm", "latitude": 38.8896443, "day": "Thursday"}]}, "South Africa": {"Guateng": {"Weltevreden Park - Johannesburg": [{"time": "6:00pm (18h00)", "contact": "Unavailable", "day": "Friday", "name": "Unavailable", "location": "6 Rooihout Street "}]}}, "New Jersey": {"Keyport": [{"name": "'Rush of Recovery',Closed Speaker Discussion", "longitude": -74.20197379999999, "contact": "Joey V 718-307-8291", "location": "60 Maple Pl,Keyport, NJ 07735", "time": "7:30pm", "latitude": 40.4325175, "day": "Monday"}, {"name": "'Bundle of Joy',Beginners 12x12 study", "longitude": -74.20197379999999, "contact": "Joey V 718-307-8291", "location": "60 Maple Pl,Keyport, NJ 07735", "time": "7:00pm", "latitude": 40.4325175, "day": "Friday"}], "Washington": [{"name": "'Key Tags Over Toe Tags',Open Meeting", "longitude": -75.0012323, "contact": "Debbie R 973-524-5528", "location": "CARES,17 Star Plaza,Washington, NJ 07882", "time": "1:00 pm", "latitude": 40.7526869, "day": "Sunday"}, {"name": "'Be The Change',Open Meeting", "longitude": -75.0012323, "contact": "Debbie R 973-524-5528", "location": "CARES,17 Star Plaza,Washington, NJ 07882", "time": "7:30 pm", "latitude": 40.7526869, "day": "Friday"}], "Flemington": [{"name": "'Finding Hope in Others',Speaker Discussion", "longitude": -74.86111269999999, "contact": "908-200-9403", "location": "87 Park Ave,Flemington, NJ 08822", "time": "8:00pm", "latitude": 40.5141829, "day": "Wednesday"}, {"name": "'Finding Hope in Others',Open Discussion", "longitude": -74.86111269999999, "contact": "908-200-9403", "location": "87 Park Ave,Flemington, NJ 08822", "time": "8:00pm", "latitude": 40.5141829, "day": "Saturday"}], "Yardville": [{"name": "'Hope After Dope',Grab Bag Topic Discussion", "longitude": -74.6724419, "contact": "Tom C 609-731-6707", "location": "392 Church St,Hamilton Township, NJ 08620", "time": "8:00pm", "latitude": 40.1721335, "day": "Wednesday"}]}, "Washington": {"Bellingham": [{"name": "", "longitude": -122.4894588, "contact": "", "location": "Lummi Reservation,2616 Kwina Road, Red Wing Circle 98225, ", "time": "7:00pm", "latitude": 48.7562157, "day": "Wednesday"}, {"name": "", "longitude": -122.4894588, "contact": "", "location": "Lummi Reservation,2616 Kwina Road, Red Wing Circle 98225, ", "time": "7:00pm", "latitude": 48.7562157, "day": "Thursday"}]}, "North Carolina": {}, "United Kingdom": {"Sheffield": [{"name": "Big Book Study", "longitude": "n/a", "contact": "wayne_blackshire@hotmailcom,Wayne 07742408774", "location": "We meet in a member's home,Please contact Wayne, for the location", "time": "7:15pm", "latitude": "n/a", "day": "Wednesday"}]}, "Tennessee": {"Knoxville": [{"name": "'Freeway 2 Freedom'", "longitude": -83.96068799999999, "contact": "", "location": "4810 Rowan Road, , Knoxville, TN 37912", "time": "8:00pm", "latitude": 36.013335, "day": "Thursday"}], "Nashville": [{"name": "'The Cartel'", "longitude": -86.7407396, "contact": "Andrew S 702-468-5743", "location": "Club 62,329 Peachtree St,Nashville, TN 37210", "time": "5:00pm", "latitude": 36.1200388, "day": "Sunday"}]}, "Texas": {"Austin": [{"name": "Heroin Chic ,( b>Women Only /b>)", "longitude": -97.71620639999999, "contact": "Lauren B 210-848-7610,Stevie S 701-491-7813", "location": "Austin Galano Club,6809 Guadalupe St,Austin, TX 78752 ", "time": "6:30pm", "latitude": 30.334472, "day": "Sunday"}, {"name": "Dopeless Hope Fiends", "longitude": -97.71620639999999, "contact": "Erik J 225-329-8973 , Shane C 512-954-0864", "location": "Austin Galano Club,6809 Guadalupe St,Austin, TX 78752 ", "time": "8:00pm", "latitude": 30.334472, "day": "Sunday"}, {"name": "The Dark Side of the Spoon", "longitude": -97.68887029999999, "contact": "Alejandro A 915-929-8979 , Hunter B 225-305-9120", "location": "Club 101,7517 Cameron Road,Austin, TX 78752", "time": "9:00pm", "latitude": 30.3293413, "day": "Tuesday"}, {"name": "'Paint it Black'", "longitude": -97.7430608, "contact": "Cole P 512-636-8804,Dillo 512-701-3618", "location": "Austin Galano Club,6809 Guadalupe St,(in the medium room) ", "time": "8:00pm", "latitude": 30.267153, "day": "Thursday"}]}, "Nevada": {"Las Vegas": [{"name": "'Pitiful to Spiritual'", "longitude": -115.2435726, "contact": "Bobby M 702-372-9365 , Matt C 702-660-8923", "location": "Solutions Recovery Center, 2975 South Rainbow Blvd Suite H , Las Vegas, NV 89146", "time": "7:00pm", "latitude": 36.1356661, "day": "Monday"}, {"name": "'Pitiful to Spiritual'", "longitude": -115.2105663, "contact": "Dan K 702-521-9496 , Michelle V 702-449-4822 ", "location": "Serenity House, 5066 Edna Ave , Las Vegas NV 89146", "time": "5:30pm", "latitude": 36.13753519999999, "day": "Wednesday"}, {"name": "'Blacked Out'", "longitude": "n/a", "contact": "Alexa K 702)743-5920 , Kevin B 702-606-3321", "location": "Serenity Club,3990 Schiff Dr ", "time": "7:00pm", "latitude": "n/a", "day": "Thursday"}, {"name": "'Blacked Out'", "longitude": "n/a", "contact": "Alexa K 702-743-5920 , Kevin B 702-606-3321", "location": "Serenity Club,3990 Schiff Dr ", "time": "7:00pm", "latitude": "n/a", "day": "Friday"}, {"name": "'Blacked Out'", "longitude": "n/a", "contact": " Kevin B 702-606-3321 , Alexa K 702-743-5920", "location": "Serenity Club,3990 Schiff Dr ", "time": "7:00pm", "latitude": "n/a", "day": "Saturday"}, {"name": "'The Wizards of Nod'", "longitude": -115.0495752, "contact": "Bobby M 702-372-9365 , Brad M 702-299-5286", "location": "GVG ,1481 Warm Springs Road Suite 137 Henderson, NV 89014", "time": "10:00pm", "latitude": 36.0553091, "day": "Saturday"}, {"name": "' 1 Offenders'", "longitude": "n/a", "contact": "Alexa K 702-743-5920", "location": "Serenity Club,3990 Schiff Dr ", "time": "7:15pm", "latitude": "n/a", "day": "Sunday"}]}, "Delaware": {}, "Maine": {}}